[
    {
      "id": 6706,
      "name": "john",
      "city": "Howellshire",
      "street_name": "Marlin Wells",
      "street_address": "2023 Lean Points",
      "secondary_address": "Suite 739",
      "building_number": "2630",
      "mail_box": "PO Box 773",
      "community": "Royal Heights",
      "zip_code": "04966-3536",
      "zip": "30823-5786",
      "postcode": "65302-6121",
      "time_zone": "Africa/Nairobi",
      "street_suffix": "Row",
      "city_suffix": "ville",
      "city_prefix": "West",
      "state": "New Jersey",
      "state_abbr": "ME",
      "country": "Guadeloupe",
      "country_code": "VE",
      "latitude": -45.532853292829905,
      "longitude": -143.35529166408546,
      "full_address": "Apt. 689 96569 Selma Mountains, Dorseymouth, MN 02139-4003"
    },
    {
      "id": 6842,
      "name": "Hameed",
      "city": "Adriantown",
      "street_name": "Reinger Shores",
      "street_address": "3807 Pacocha Manors",
      "secondary_address": "Suite 735",
      "building_number": "968",
      "mail_box": "PO Box 9917",
      "community": "Park Gardens",
      "zip_code": "34877-2130",
      "zip": "77086",
      "postcode": "19239",
      "time_zone": "America/Guyana",
      "street_suffix": "Coves",
      "city_suffix": "town",
      "city_prefix": "New",
      "state": "Missouri",
      "state_abbr": "SC",
      "country": "Macedonia",
      "country_code": "WS",
      "latitude": 44.179745528158776,
      "longitude": -36.33320609572817,
      "full_address": "109 Hoeger Station, Port Althachester, MO 53626-4272"
    },
    {
      "id": 3002,
      "name": "Bonashara",
      "city": "Armandoside",
      "street_name": "Ron Corners",
      "street_address": "310 Littel Mountains",
      "secondary_address": "Suite 514",
      "building_number": "8670",
      "mail_box": "PO Box 10",
      "community": "Park Gardens",
      "zip_code": "47830",
      "zip": "58810-0251",
      "postcode": "66125-7704",
      "time_zone": "Asia/Irkutsk",
      "street_suffix": "Extension",
      "city_suffix": "view",
      "city_prefix": "New",
      "state": "Kentucky",
      "state_abbr": "MN",
      "country": "Reunion",
      "country_code": "RO",
      "latitude": -74.18706018532299,
      "longitude": -160.755883507978,
      "full_address": "2263 Anderson Isle, South Mack, MS 17919"
    }
  ]